Name,BroadClass,Period,UnitaryAuthority,lon,lat
Nant y Gledrydd Standing Stone                                                                                                                        ,"Religious, Ritual and Funerary",Prehistoric,Gwynedd,-4.538877038012756,52.89874290537436
Medieval Ecclesiastical Structure SE of Ty'n y Coed Cottage                                                                                           ,"Religious, Ritual and Funerary",Medieval,Gwynedd,-4.088191258977043,52.82650743057542
Parc Castell Round Barrow                                                                                                                             ,"Religious, Ritual and Funerary",Prehistoric,Pembrokeshire,-4.879010326635407,51.90838925671371
Mynydd Castlebythe Round Barrows                                                                                                                      ,"Religious, Ritual and Funerary",Prehistoric,Pembrokeshire,-4.8690502976987355,51.93028006124077
Round Barrow 100m E of Thornbush                                                                                                                      ,"Religious, Ritual and Funerary",Prehistoric,Pembrokeshire,-5.02578121464852,51.8546623091672
Carnedd y Filiast Cairn                                                                                                                               ,"Religious, Ritual and Funerary",Prehistoric,Gwynedd,-3.6828377142992004,52.986782658197
Round Cairns c. 400m SE of Lan Fawr                                                                                                                   ,"Religious, Ritual and Funerary",Prehistoric,Ceredigion,-3.909513908467081,52.131068703044185
Banwen Gwys Round Cairns                                                                                                                              ,"Religious, Ritual and Funerary",Prehistoric,Powys,-3.7463897182552026,51.850853834477896
Blaenannerch Round Barrow                                                                                                                             ,"Religious, Ritual and Funerary",Prehistoric,Ceredigion,-4.557637825139462,52.11142052656772
"Gellifawr, Standing Stone 70m SW of                                                                                                                   ","Religious, Ritual and Funerary",Prehistoric,Pembrokeshire,-4.823606982001222,51.97456600588853
Medieval Settlement on Penybont Common                                                                                                                ,Domestic,Medieval,Powys,-3.2808688535476804,52.26906248344636
Pant y Rhiw Medieval Settlement                                                                                                                       ,Domestic,Medieval,Powys,-3.3466489140575644,52.2069311812625
Bank House Medieval Settlement                                                                                                                        ,Domestic,Medieval,Powys,-3.3420010671390035,52.23528771053383
Llys Rhosyr,Domestic,Medieval,Isle of Anglesey,-4.366179689475141,53.16198647272913
"St. Illtud's Church, Early Medieval Cross, Cross Shafts and Pillar","Religious, Ritual and Funerary",Early Medieval,Vale of Glamorgan,-3.488216584326668,51.40796288013653
Bronze Age tumulus north of Beili Haulwen                                                                                                             ,"Religious, Ritual and Funerary",Prehistoric,Powys,-3.476342280159106,52.359934866349896
Esgair Draenllwyn Round Cairn I                                                                                                                       ,"Religious, Ritual and Funerary",Prehistoric,Powys,-3.5842518671386636,52.537060098996335
Trelystan Church House Round Barrows                                                                                                                  ,"Religious, Ritual and Funerary",Prehistoric,Powys,-3.0935710192927215,52.63694615640358
Ysgwennant Barrow                                                                                                                                     ,"Religious, Ritual and Funerary",Prehistoric,Powys,-3.2052041356677465,52.86626053420536
Troedrhiwhir Mountain ring cairn                                                                                                                      ,"Religious, Ritual and Funerary",Prehistoric,Carmarthenshire,-3.8292241584419684,52.113855177646
Castell Olwen,Defence,Prehistoric,Ceredigion,-4.075316816325603,52.123158676317345
Carreg Hir Standing Stone                                                                                                                             ,"Religious, Ritual and Funerary",Prehistoric,Powys,-3.4556751331263875,52.560540828824486
Cerrig Llwydion Deserted Rural Settlement                                                                                                             ,Domestic,Post Medieval/Modern,Powys,-3.6400783799135548,52.24743567756034
Cwm Rhiwiau Stone Circle                                                                                                                              ,"Religious, Ritual and Funerary",Prehistoric,Powys,-3.3988255673335415,52.86422686989483
Tyddyn Tudur Enclosure                                                                                                                                ,Monument,Prehistoric,Conwy,-3.5291030674142445,53.033774117375714
Mynydd Rhyd Ddu Enclosure                                                                                                                             ,Defence,Prehistoric,Denbighshire,-3.4104225333886995,53.01869962538074
Long Hut North of Cwm Farm,Unassigned,Medieval,Gwynedd,-4.332719888938937,52.988722664852155
Enclosed Hut Group North West of Cwm Farm,Domestic,Prehistoric,Gwynedd,-4.3337497535550575,52.987650468712566
Standing Stone on Ty'r Coed Farm                                                                                                                      ,"Religious, Ritual and Funerary",Prehistoric,Swansea,-4.202498453621118,51.60325248476246
St Madoc's Church cross-incised stones                                                                                                                ,"Religious, Ritual and Funerary",Early Medieval,Swansea,-4.2563748976144264,51.61802022858028
Weobley Castle,Defence,Medieval,Swansea,-4.199275762162485,51.612764378310764
Sweyne's Howe chambered cairns                                                                                                                        ,"Religious, Ritual and Funerary",Prehistoric,Swansea,-4.2802449439063714,51.585274172538256
Llanelen Chapel Site                                                                                                                                  ,"Religious, Ritual and Funerary",Medieval,Swansea,-4.151748861477405,51.619364924093304
Round Barrow 450m E of Penbedw Hall                                                                                                                   ,"Religious, Ritual and Funerary",Prehistoric,Flintshire,-3.2440457363923345,53.2043219257728
"Canal Aqueduct over the River Twrch, Ystalyfera",Water Supply and Drainage,Post Medieval/Modern,Powys,-3.779883885870472,51.76833554704794
Loughor Castle,Defence,Medieval,Swansea,-4.077112999031655,51.66221059128743
Remains of Venallt Ironworks                                                                                                                          ,Industrial,Post Medieval/Modern,Neath Port Talbot,-3.6459205993329413,51.73193764352166
Remains of Astronomical Observatory at Penllergaer                                                                                                    ,Education,Post Medieval/Modern,Swansea,-3.993317345465266,51.67368991573963
Pen y Ffrwd-Llwyd Camp                                                                                                                                ,Defence,Prehistoric,Ceredigion,-3.8942868835923012,52.301947656948116
Garn Goch Round Barrow,"Religious, Ritual and Funerary",Prehistoric,Swansea,-4.017564283989902,51.664076432177
Standing Stones 300m W of Cefncelfi,"Religious, Ritual and Funerary",Prehistoric,Neath Port Talbot,-3.822558388242144,51.71237068274096
Ffrith-Uchaf Round Cairn                                                                                                                              ,"Religious, Ritual and Funerary",Prehistoric,Conwy,-3.7032601513452716,53.124778682032364
Mesur-y-Dorth Cross-Incised Stone,"Religious, Ritual and Funerary",Early Medieval,Pembrokeshire,-5.145584453207576,51.93235564861883
Castell Mawr                                                                                                                                          ,Defence,Prehistoric,Pembrokeshire,-4.742373321464386,52.00638061892238
Castell Eglwyswrw                                                                                                                                     ,Defence,Medieval,Pembrokeshire,-4.713218263735657,52.01270395657001
Castell Nanhyfer,Defence,Medieval,Pembrokeshire,-4.796987440387316,52.02665233347475
Castell Heinif                                                                                                                                        ,Defence,Prehistoric,Pembrokeshire,-5.308113258657196,51.874145053336974
Penparke Standing Stone                                                                                                                               ,"Religious, Ritual and Funerary",Prehistoric,Pembrokeshire,-4.782314297226213,51.98451593270711
Bryngwyn Wood Camp                                                                                                                                    ,Defence,Prehistoric,Powys,-3.2109324260026395,52.75182254253163
Black Bank Camp                                                                                                                                       ,Monument,Prehistoric,Powys,-3.090062640179583,52.66106304663354
Y Golfa Camp                                                                                                                                          ,Monument,Prehistoric,Powys,-3.2162090520447073,52.653434233843335
Tan y Clawdd Camp                                                                                                                                     ,Defence,Prehistoric,Powys,-3.200111858903239,52.662669511229694
"Roman Supply Depot, Llansantffraid ym Mechain",Monument,Roman,Powys,-3.145606075287366,52.777760514887945
Carreghofa Castle                                                                                                                                     ,Defence,Medieval,Powys,-3.1067579119016715,52.79211770820527
Knaps Barrows                                                                                                                                         ,"Religious, Ritual and Funerary",Prehistoric,Powys,-3.0466045255628176,52.67700772358907
Powis Castle Park Mound,"Gardens, Parks and Urban Spaces",Post Medieval/Modern,Powys,-3.1811040643382733,52.643747364257486
Llancarfan Monastery (Site of)                                                                                                                        ,"Religious, Ritual and Funerary",Early Medieval,Vale of Glamorgan,-3.365340156282363,51.42146371194794
New Radnor: Interior of Medieval Town,Civil,Medieval,Powys,-3.1574700371355773,52.24020894230167
Felin Wen Tide Mill,Industrial,Post Medieval/Modern,Isle of Anglesey,-4.556251285956546,53.264343243280436
Dinas Silica Mine                                                                                                                                     ,Transport,Post Medieval/Modern,Rhondda Cynon Taff,-3.570447607502286,51.76040501174154
Medieval Cross in Churchyard,"Religious, Ritual and Funerary",Medieval,Vale of Glamorgan,-3.502887338832674,51.489613910527595
Llangan Celtic Cross,"Religious, Ritual and Funerary",Early Medieval,Vale of Glamorgan,-3.503050150975218,51.489746705974774
Cross in St Mary's Churchyard,"Religious, Ritual and Funerary",Medieval,Vale of Glamorgan,-3.502824524409441,51.503031022145706
"Llandough Castle, Remains of Hall",Defence,Medieval,Vale of Glamorgan,-3.4475653997350832,51.446976820086434
Ringwork & Bailey at Gelligarn,Defence,Medieval,Vale of Glamorgan,-3.4987830476760524,51.49754358442623
Mynydd y Gaer                                                                                                                                         ,Defence,Prehistoric,Bridgend,-3.482072257622232,51.55437926065455
Castle Mound near Swan Hotel                                                                                                                          ,Defence,Medieval,Powys,-3.1299172939966295,52.07265212132405
Tretower Court                                                                                                                                        ,Domestic,Medieval,Powys,-3.18455706663901,51.883309501066215
Fforest Castle Mound                                                                                                                                  ,Defence,Medieval,Powys,-3.580911713947524,52.15587618969722
Old Beaupre Castle,Domestic,Medieval,Vale of Glamorgan,-3.4285726394029,51.439224809041164
Cae Metta Hut Group,Domestic,Prehistoric,Gwynedd,-4.191136777480457,53.161713796005415
Enclosure 200m SE of Solva Village                                                                                                                    ,Monument,Prehistoric,Pembrokeshire,-5.184997209236438,51.87441576787573
Enclosure in Tycanol Wood                                                                                                                             ,Defence,Prehistoric,Pembrokeshire,-4.782276414691664,51.99635196729007
Bont-Newydd                                                                                                                                           ,Transport,Post Medieval,Gwynedd,-4.0049307251085,53.22821592881384
Pier Camp,Monument,Unknown,Gwynedd,-4.127736080071149,53.23387168786531
Cefn Mawr Hut Group,Domestic,Prehistoric,Gwynedd,-4.195369192721625,53.16403635379774
"Vivian Slate Quarry, Inclines, Walia & associated structures                                                                                          ",Industrial,Post Medieval/Modern,Gwynedd,-4.114041434120055,53.1243760646784
Hut Group N of Glan'r Afon,Domestic,Prehistoric,Isle of Anglesey,-4.253520904723104,53.34480567522441
Hut Group W of Foel Dduarth,Domestic,Prehistoric,Gwynedd,-3.9829081564196382,53.22499736566272
Middleton Moated Site                                                                                                                                 ,Domestic,Medieval,Vale of Glamorgan,-3.222943541113536,51.41023164449499
Walterston ringwork                                                                                                                                   ,Monument,Medieval,Vale of Glamorgan,-3.3417076383910405,51.43218553170122
"Medieval House Site, Llantrithyd",Monument,Medieval,Vale of Glamorgan,-3.3749453368906996,51.445342435110256
Llanvithyn Camp                                                                                                                                       ,Defence,Prehistoric,Vale of Glamorgan,-3.361469272067539,51.43736188514264
Llantrithyd Camp,Monument,Prehistoric,Vale of Glamorgan,-3.384897424548735,51.44943357781585
Two Cairns on Traeth Mawr                                                                                                                             ,"Religious, Ritual and Funerary",Prehistoric,Powys,-3.5053404192517563,51.92041866843936
Moel-y-Gaer Camp                                                                                                                                      ,Defence,Prehistoric,Denbighshire,-3.2742232705059147,53.146056490492306
Castell Rhuddlan,Defence,Medieval,Denbighshire,-3.4650281820000006,53.28914333067125
"Huts and Enclosures, Cwm Llefrith                                                                                                                     ",Domestic,Prehistoric,Gwynedd,-4.162166683186507,52.99922193528819
Burnt Mound 230m NE of Ffos                                                                                                                           ,Domestic,Prehistoric,Ceredigion,-3.92315046442591,52.287031644530806
"Hut Circle, Bryniau Poethion, Great Orme",Domestic,Prehistoric,Conwy,-3.8496141929397045,53.33275672674491
Wat's Dyke: Section SE of Meadow Mills                                                                                                                ,Monument,Early Medieval,Flintshire,-3.214854139093759,53.2811676638258
Holywell Castle Mound                                                                                                                                 ,Defence,Medieval,Flintshire,-3.222499621487685,53.27734995387905
Kelsterton Brewery                                                                                                                                    ,Industrial,Post Medieval/Modern,Flintshire,-3.083648693113576,53.22739135466335
Mynydd Bach Camp,Defence,Prehistoric,Wrexham,-3.2622560885138476,52.89719534157602
Cerrig Pryfaid Stone Circle                                                                                                                           ,"Religious, Ritual and Funerary",Prehistoric,Conwy,-3.911915945544508,53.22369451264058
Gwern y Plas Ancient Village                                                                                                                          ,Domestic,Prehistoric,Conwy,-3.9698666376878338,53.25418048489469
Mwdwl Eithin Round Barrows,"Religious, Ritual and Funerary",Prehistoric,Conwy,-3.7544911324576713,53.19769937778867
"Site of Medieval King's Hall and Wardrobe, Rosehill Street                                                                                            ",Monument,Medieval,Conwy,-3.8275956818297177,53.28001916579699
Hut Groups N of Cerrig y Dinas                                                                                                                        ,Domestic,Prehistoric,Conwy,-3.8697079684256774,53.249617766416655
Llanrwst Bridge,Transport,Post Medieval/Modern,Conwy,-3.7975677246083803,53.13699383430149
Hendre-Waelod Burial Chamber                                                                                                                          ,"Religious, Ritual and Funerary",Prehistoric,Conwy,-3.811054793485878,53.25598953451443
"Six Inscribed Stones in St Tudclud's Church, Penmachno                                                                                                ","Religious, Ritual and Funerary",Early Medieval,Conwy,-3.806204431454678,53.03885113745262
Ogof Pant-y-Wennol                                                                                                                                    ,Monument,Prehistoric,Conwy,-3.7906059951511977,53.31802371599319
Kendricks Cave & Upper Kendricks Cave                                                                                                                 ,Monument,Prehistoric,Conwy,-3.8335776290233317,53.32827560773551
Pont Rhyd-Llanfair                                                                                                                                    ,Transport,Post Medieval/Modern,Conwy,-3.7503363972293946,53.05630959722388
Pen y Dinas Camp,Defence,Iron Age,Conwy,-3.8348983638526217,53.32965773310582
Caer Oleu Camp,Defence,Prehistoric,Conwy,-3.8074744576157094,53.18243299490919
Talley Mound and Bailey Castle                                                                                                                        ,Defence,Medieval,Carmarthenshire,-3.9941158537459085,51.981867432465314
Castell y Gaer,Defence,Prehistoric,Gwynedd,-4.083200322810445,52.66061874241621
Fedw Deg Medieval House,Domestic,Post Medieval/Modern,Conwy,-3.8085725348932167,53.062990131339696
Gwernvale chambered cairn                                                                                                                             ,"Religious, Ritual and Funerary",Prehistoric,Powys,-3.1470814481911265,51.86598599313602
Monnow Bridge                                                                                                                                         ,Transport,Medieval,Monmouthshire,-2.720044844762026,51.808973188194074
St Rogue's Chapel                                                                                                                                     ,"Religious, Ritual and Funerary",Medieval,Bridgend,-3.602055829275436,51.490746645452035
Cooking Mound East of Taff Terrace,Domestic,Prehistoric,Cardiff,-3.2488560634442125,51.51259300704301
Llandaff Cathedral Bell Tower,"Religious, Ritual and Funerary",Medieval,Cardiff,-3.218622534700741,51.49533189014137
Ely Roman Villa,Domestic,Roman,Cardiff,-3.2295713395811436,51.47769228009143
Dominican Friary,"Religious, Ritual and Funerary",Medieval,Cardiff,-3.1853334169219,51.48318337819168
"Old Bishop's Palace, Llandaff",Domestic,Medieval,Cardiff,-3.217262124518985,51.49455473168406
"Sully Island, ""Danish"" Fort                                                                                                                           ",Defence,Prehistoric,Vale of Glamorgan,-3.196408633212439,51.39566871297325
Medieval Moated Site 400m N of Undy Church                                                                                                            ,Domestic,Medieval,Monmouthshire,-2.8101391172315586,51.582460674268766
Caerau                                                                                                                                                ,Monument,Prehistoric,Pembrokeshire,-4.738634968871171,52.075633796015815
St Non's Chapel,"Religious, Ritual and Funerary",Early Medieval,Pembrokeshire,-5.268810474805441,51.872195631981675
Parc y Castell Mound and Bailey Castle,Defence,Medieval,Pembrokeshire,-5.278518706877844,51.879606423576625
Castell Hendre-Wen,Monument,Prehistoric,Pembrokeshire,-5.027794261384262,51.962806246339845
Castell Poeth                                                                                                                                         ,Monument,Prehistoric,Pembrokeshire,-5.0647722732146,51.997958904608424
Ffynnon- Druidion Standing Stone                                                                                                                      ,"Religious, Ritual and Funerary",Prehistoric,Pembrokeshire,-5.028743269047565,51.98765855301708
Garn Gilfach Burial Chamber                                                                                                                           ,"Religious, Ritual and Funerary",Prehistoric,Pembrokeshire,-5.04831260694644,52.00981751056182
Cae Sara Lead Mine,Industrial,Post Medieval/Modern,Carmarthenshire,-3.8143010626502765,51.93282117244145
Group of Burnt Mounds 300m SSW of Cilcoll Farm                                                                                                        ,Domestic,Prehistoric,Carmarthenshire,-3.996141992579907,51.821943792251254
Bretton Hall Moated Site                                                                                                                              ,Domestic,Medieval,Flintshire,-2.9498870796462553,53.166857779926616
Gwersyll                                                                                                                                              ,Monument,Prehistoric,Rhondda Cynon Taff,-3.410176255169033,51.72654271615444
Roman Wall Surrounding St Cybi's Churchyard,Defence,Roman,Isle of Anglesey,-4.632344912113838,53.31144695222414
Stone Circle 200m SW of Cerrig Cynant                                                                                                                 ,"Religious, Ritual and Funerary",Prehistoric,Carmarthenshire,-3.7509293539284645,52.0826027157698
Strata Florida Abbey,"Religious, Ritual and Funerary",Medieval,Ceredigion,-3.8381759336758905,52.27515005476854
Allt Dolanog Hillfort                                                                                                                                 ,Defence,Prehistoric,Powys,-3.386530849498686,52.70957794652142
Crug Eryr Mound and Bailey Castle                                                                                                                     ,Defence,Medieval,Powys,-3.234783092140933,52.22543553787967
Caerleon Legionary Fortress: Old Vicarage Garden,Defence,Roman,Newport,-2.9561852564104973,51.61076393882475
Danish Camp                                                                                                                                           ,Monument,Prehistoric,Neath Port Talbot,-3.702736338497639,51.5701235587786
Caerleon Legionary Fortress: Back Garden of No 4 Museum Street                                                                                        ,Defence,Roman,Newport,-2.954531645408216,51.61041773633329
Caerleon Legionary Fortress: Area behind Caerleon House                                                                                               ,Defence,Roman,Newport,-2.9531147960878235,51.60896362394951
"Caerleon Legionary Fortress: Town Hall Park, High Street",Defence,Roman,Newport,-2.95710400210901,51.61118804581538
Hanton Round Barrows                                                                                                                                  ,"Religious, Ritual and Funerary",Prehistoric,Pembrokeshire,-4.924220784601168,51.79246916165712
Linney Deserted Medieval Village                                                                                                                      ,Domestic,Medieval,Pembrokeshire,-5.042192988152977,51.629675357039126
Napps Camp                                                                                                                                            ,Defence,Prehistoric,Carmarthenshire,-4.567611035459793,51.73921854495138
"Parys Mountain: Windmill, Engine House, Precipitation Pits and Great Opencast",Monument,Post Medieval/Modern,Isle of Anglesey,-4.343503680765818,53.38678464648705
Tyddyn Sadler Hut Group,Domestic,Prehistoric,Isle of Anglesey,-4.382196797802307,53.23665238545893
Pen-y-Fynwent Enclosure                                                                                                                               ,Monument,Medieval,Isle of Anglesey,-4.356074774559421,53.37314981019276
Enclosed Hut Group West of Mariandyrys,Domestic,Prehistoric,Isle of Anglesey,-4.107970595830728,53.30941943491672
Tre-Arddur Hut Group                                                                                                                                  ,Domestic,Prehistoric,Isle of Anglesey,-4.607893542690889,53.287401981622345
Benllech Megalith: Goosehouse                                                                                                                         ,"Religious, Ritual and Funerary",Prehistoric,Isle of Anglesey,-4.224683449186191,53.32014640003794
"North Weir and Smoke Tower, Ynys Gorad Goch",Agriculture and Subsistence,Post Medieval/Modern,Isle of Anglesey,-4.181282188981574,53.2186800936965
Bodewryd Standing Stone                                                                                                                               ,"Religious, Ritual and Funerary",Prehistoric,Isle of Anglesey,-4.397793266885804,53.384636072670645
Maen Addwyn                                                                                                                                           ,"Religious, Ritual and Funerary",Prehistoric,Isle of Anglesey,-4.312888754000736,53.32471664795783
Dinas Cadnant Hillfort,Defence,Prehistoric,Isle of Anglesey,-4.171148259382216,53.23776357040424
Aberlleiniog Castle,Defence,Medieval,Isle of Anglesey,-4.077249243632488,53.292535235239626
Bodfeddan Inscribed Stone,"Religious, Ritual and Funerary",Early Medieval,Isle of Anglesey,-4.465007004999047,53.242843851299
Din Llugwy Romano-British Village,Domestic,Prehistoric,Isle of Anglesey,-4.259332392970363,53.350719458611344
Penmon Priory,"Religious, Ritual and Funerary",Medieval,Isle of Anglesey,-4.0568221263934445,53.305529871901584
"Rhosydd Incline, Drumhouse & Tramway",Transport,Post Medieval/Modern,Gwynedd,-4.001156688751199,52.996647554862825
Cefn Clawdd Early Settlement and Fields                                                                                                               ,Agriculture and Subsistence,Prehistoric,Gwynedd,-3.950439316716616,52.88501730838424
Hut Circle 800m West of Moelfryn-Isaf                                                                                                                 ,Domestic,Prehistoric,Gwynedd,-3.9716633586662575,52.90366422250311
Cwm Moch Settlement                                                                                                                                   ,Domestic,Medieval,Gwynedd,-3.9872017755116547,52.906902608289165
Cerrig Arthur Stone Circle                                                                                                                            ,"Religious, Ritual and Funerary",Prehistoric,Gwynedd,-4.028692794057704,52.7502261012858
Ceunant Egryn Enclosed Settlement,Domestic,Prehistoric,Gwynedd,-4.06822416832626,52.76519657596187
Cyfannedd-Fach Homestead                                                                                                                              ,Domestic,Medieval,Gwynedd,-4.025723300983916,52.69547624107412
Bryn-y-Castell Hillfort,Defence,Prehistoric,Gwynedd,-3.8953772298976803,52.968910501638355
Tomen y Mur,"Religious, Ritual and Funerary",Roman,Gwynedd,-3.9222224329755084,52.92852490806977
Y Gyrn Round Cairns                                                                                                                                   ,"Religious, Ritual and Funerary",Prehistoric,Gwynedd,-4.022301329097052,52.903163231952426
Cefn Ddwysarn Camp,Monument,Prehistoric,Gwynedd,-3.53843754517688,52.931040937614235
Byrllysg promontory fort,Defence,Prehistoric,Gwynedd,-4.083917874525405,52.7961478609571
Bron-y-Foel West Burial Chamber                                                                                                                       ,"Religious, Ritual and Funerary",Prehistoric,Gwynedd,-4.066702845493704,52.801286248131674
Corwen Churchyard Cross                                                                                                                               ,"Religious, Ritual and Funerary",Medieval,Denbighshire,-3.373592022762799,52.9799709287517
Pont Carrog                                                                                                                                           ,Transport,Post Medieval/Modern,Denbighshire,-3.319258315837875,52.98345421913656
Caer Drewen Camp                                                                                                                                      ,Defence,Prehistoric,Denbighshire,-3.360240314698888,52.98925820998969
Moel Ty-Uchaf Circles                                                                                                                                 ,"Religious, Ritual and Funerary",Prehistoric,Denbighshire,-3.4056342383471803,52.92317518344156
Tomen y Bala Castle Mound,Defence,Medieval,Gwynedd,-3.5955070308783164,52.91153448076063
Caer Gai Roman Site,Defence,Roman,Gwynedd,-3.6683897026287453,52.86888060783343
Enclosed Hut Group North East of Cae'r Mynydd,Domestic,Prehistoric,Gwynedd,-4.132460080069145,53.16188924977399
"Huts on Mynydd Enlli, Bardsey Island",Domestic,Prehistoric,Gwynedd,-4.784962646840861,52.75913112490737
"Pen-yr-Orsedd Quarry, Blondins and Associated Structures                                                                                              ",Industrial,Post Medieval/Modern,Gwynedd,-4.2273192542349864,53.063949708318965
Fortified Hut Settlement above Rachub,Domestic,Prehistoric,Gwynedd,-4.054482499093487,53.19047477926124
Hut Circle Settlement East of Dinas-y-Prif                                                                                                            ,Domestic,Prehistoric,Gwynedd,-4.29518422752091,53.0950540176795
Llangwnadl Standing Stone,"Religious, Ritual and Funerary",Prehistoric,Gwynedd,-4.662677300589704,52.86034127204009
Y Foel Camp,Defence,Prehistoric,Gwynedd,-4.312389773709394,53.030964918789465
"Inscribed Stone in St Cian's Churchyard, Llangian                                                                                                     ","Religious, Ritual and Funerary",Early Medieval,Gwynedd,-4.531326743082307,52.83094453077625
Castell Odo,Defence,Prehistoric,Gwynedd,-4.692037989655869,52.8232068686978
Castell Cricieth,Defence,Medieval,Gwynedd,-4.2324582843720755,52.915887545449934
Dinas Emrys Camp                                                                                                                                      ,Defence,Roman,Gwynedd,-4.078964194391227,53.022176434779446
Gesail Gyfarch Inscribed Stone                                                                                                                        ,"Religious, Ritual and Funerary",Early Medieval,Gwynedd,-4.17454486100734,52.952836417910966
Pwll Du Village,Industrial,Post Medieval/Modern,Monmouthshire,-3.0957375791274377,51.79888762823057
"Area of Deserted Medieval Settlement, Skenfrith",Domestic,Medieval,Monmouthshire,-2.794127277657727,51.87862695728091
British Colliery Pumping Engine House                                                                                                                 ,Industrial,Post Medieval/Modern,Torfaen,-3.075050103956334,51.72658975454323
Marine Colliery Pumping Engine,Industrial,Post Medieval/Modern,Blaenau Gwent,-3.175906507980916,51.7315219760581
Redbrook Incline Overbridge                                                                                                                           ,Transport,Post Medieval/Modern,Monmouthshire,-2.6733500042403264,51.78922664449535
"Tramroad Bridge, Bailey's Tramroad, Govilon                                                                                                           ",Transport,Post Medieval/Modern,Monmouthshire,-3.075384408731427,51.81382142078069
Moated Site E of Grangefield Farm                                                                                                                     ,Domestic,Medieval,Newport,-2.881551445425851,51.56008730540234
Medieval House Sites W of Trellech Church,Domestic,Medieval,Monmouthshire,-2.726083587304986,51.746078532749586
"Little Hadnock Roman Villa, Dixton Newtown                                                                                                            ",Domestic,Roman,Monmouthshire,-2.6757866083145054,51.83388059589127
"Cairn Cemetery on Mynydd Bach, Bedwas                                                                                                                 ","Religious, Ritual and Funerary",Prehistoric,Caerphilly,-3.2025179571898303,51.620574405890295
Old Furnace Blast Furnace,Industrial,Post Medieval/Modern,Monmouthshire,-2.7050474044233614,51.6992631876049
"St George's Well, Abergele                                                                                                                            ","Religious, Ritual and Funerary",Early Medieval,Conwy,-3.5362670556611704,53.268046910256714
Wrexham Churchyard Ornamental Wrought Iron Gates and Screen,Monument,Post Medieval/Modern,Wrexham,-2.9929902039741556,53.04462813605304
Derwen Cross,"Religious, Ritual and Funerary",Medieval,Denbighshire,-3.3883130714519387,53.04559675305023
Wat's Dyke : Section South of Ruthin Road                                                                                                             ,Monument,Early Medieval,Wrexham,-3.004859242969229,53.04251480142358
"Remains of Brunel Dock, Briton Ferry",Maritime,Post Medieval/Modern,Neath Port Talbot,-3.8268638539288062,51.62700327539244
Site of Medieval Mill & Mill Leat Cliffwood                                                                                                           ,Agriculture and Subsistence,Medieval,Vale of Glamorgan,-3.3114872449857313,51.394140269674494
Glyncorrwg Mineral Railway (Parsons Folly) Section on Cefn Morfudd                                                                                    ,Transport,Post Medieval/Modern,Neath Port Talbot,-3.751163277578033,51.66880189377743
Tarren Deusant Sculptured Rock & Spring                                                                                                               ,"Religious, Ritual and Funerary",Unknown,Rhondda Cynon Taff,-3.369383826245548,51.57580088762236
"Gelli-Isaf Tramroad Bridge, Abernant Tramroad                                                                                                         ",Transport,Post Medieval/Modern,Rhondda Cynon Taff,-3.463733860512123,51.72876497225171
Pont y Cafnau Tramroad Bridge                                                                                                                         ,Transport,Post Medieval/Modern,Merthyr Tydfil,-3.395607138548155,51.754635967339475
Plas Baglan                                                                                                                                           ,Defence,Medieval,Neath Port Talbot,-3.7978535157502,51.61570731984994
Merthyr Tramroad: Pont y Gwaith section and associated bridges                                                                                        ,Transport,Post Medieval/Modern,Merthyr Tydfil,-3.3296290166918943,51.67075324566235
Roman Marching Camp South West of Melin Court Brook                                                                                                   ,Defence,Roman,Neath Port Talbot,-3.684104635691418,51.68705669899315
St-y-Nyll Round Barrow,"Religious, Ritual and Funerary",Prehistoric,Vale of Glamorgan,-3.296730969006979,51.49641836177016
Stormy Castle,Defence,Medieval,Bridgend,-3.664752700891986,51.5206178437574
"Enclosure, Field System & Hollow-ways North of Pant                                                                                                   ",Monument,Medieval,Flintshire,-3.2871801602903026,53.260730932616426
Taylor's Pottery                                                                                                                                      ,Industrial,Post Medieval/Modern,Flintshire,-3.0952341708155515,53.18007353174613
"Pinfold Lane Pottery, Site of                                                                                                                         ",Industrial,Post Medieval/Modern,Flintshire,-3.086032255106099,53.1818747635668
Trelawnyd Churchyard Cross                                                                                                                            ,"Religious, Ritual and Funerary",Medieval,Flintshire,-3.368477998340527,53.30567153490785
Round Barrow 450m South West of Glol Farm                                                                                                             ,"Religious, Ritual and Funerary",Prehistoric,Flintshire,-3.319794530014351,53.29356321238443
Moel y Gaer Camp,Defence,Prehistoric,Flintshire,-3.1826759294295144,53.21250708423958
Dolau-Hirion Bridge                                                                                                                                   ,Transport,Post Medieval/Modern,Carmarthenshire,-3.805075594931153,52.00951932191197
Spudder's Bridge                                                                                                                                      ,Transport,Medieval,Carmarthenshire,-4.2692078497155475,51.72976933719117
Carmarthen Castle,Defence,Medieval,Carmarthenshire,-4.3058780575179645,51.85570857528242
The Bulwarks (Civil War),Monument,Post Medieval/Modern,Carmarthenshire,-4.312223873896054,51.8551343164653
Round Barrow N of Rosemary Lane                                                                                                                       ,"Religious, Ritual and Funerary",Prehistoric,Pembrokeshire,-4.834173851656814,51.71668324230192
Round Barrow on W Slope of Freni Fawr                                                                                                                 ,"Religious, Ritual and Funerary",Prehistoric,Pembrokeshire,-4.62348376662545,51.98577166316049
Pencraig-Fawr Camp                                                                                                                                    ,Monument,Prehistoric,Pembrokeshire,-4.736938272764829,51.90367857984735
Hazel Grove Camp (South),Monument,Prehistoric,Pembrokeshire,-4.9582144162017885,51.87255307935856
Sealyham Rocks Camp                                                                                                                                   ,Defence,Prehistoric,Pembrokeshire,-4.954311421546532,51.9162616959981
West Pennar Camp                                                                                                                                      ,Monument,Prehistoric,Pembrokeshire,-4.990781092067864,51.68794762554276
New Moat Castle Mound                                                                                                                                 ,Defence,Medieval,Pembrokeshire,-4.815841514874546,51.89299314052795
Scollock Rath                                                                                                                                         ,Defence,Prehistoric,Pembrokeshire,-4.87968499284849,51.88167085957284
Kings Mill Camp                                                                                                                                       ,Defence,Prehistoric,Pembrokeshire,-5.002023717833419,51.64967872920046
Crowhill Rath                                                                                                                                         ,Defence,Prehistoric,Pembrokeshire,-4.975222097970412,51.81722569951638
Maen Colman                                                                                                                                           ,"Religious, Ritual and Funerary",Early Medieval,Pembrokeshire,-4.60062561083875,52.01381533491412
Great Castle Head Rath                                                                                                                                ,Defence,Prehistoric,Pembrokeshire,-5.186589158617003,51.70656633439123
Castle Mound                                                                                                                                          ,Defence,Medieval,Pembrokeshire,-5.1361518030377065,51.72538268818253
Crugiau Cemmaes Round Barrows                                                                                                                         ,"Religious, Ritual and Funerary",Prehistoric,Pembrokeshire,-4.734693018110219,52.04123685708056
Priory Rath                                                                                                                                           ,Defence,Prehistoric,Pembrokeshire,-5.034403741238665,51.72331682328814
Rath S of St James Church                                                                                                                             ,Defence,Prehistoric,Pembrokeshire,-5.083649219171886,51.75786621544641
Syke Rath                                                                                                                                             ,Defence,Prehistoric,Pembrokeshire,-5.084056016258409,51.75086710705352
Rath 150m SE of Pelcomb Farm,Defence,Prehistoric,Pembrokeshire,-4.992266148717656,51.81646009916946
Camp 370m NE of Stoneyford,Monument,Prehistoric,Pembrokeshire,-4.8006378666030445,51.831301436175515
Camp 200m NE of Stoneyford,Defence,Prehistoric,Pembrokeshire,-4.801759455986894,51.829727822053115
Drim Camp                                                                                                                                             ,Defence,Early Medieval,Pembrokeshire,-4.811475381972358,51.84145714258451
Angle Dovecot                                                                                                                                         ,Agriculture and Subsistence,Medieval,Pembrokeshire,-5.088482334071114,51.685776950445884
King's Quoit Burial Chamber                                                                                                                           ,"Religious, Ritual and Funerary",Prehistoric,Pembrokeshire,-4.806035174867964,51.64081396347028
Yr Allor Cairn                                                                                                                                        ,"Religious, Ritual and Funerary",Prehistoric,Powys,-3.6274461300108336,52.59024773347605
Roman Earthwork NE of Caersws (revealed by aerial photography),Monument,Roman,Powys,-3.413933987010495,52.522243509440074
Sibwll Wood Camp                                                                                                                                      ,Monument,Prehistoric,Powys,-3.2091915951376384,52.497559739750955
Camp S of Old Hall Sarn                                                                                                                               ,Defence,Medieval,Powys,-3.1701331023891446,52.499507888339245
Offa's Dyke: Section W of Court House Farm                                                                                                            ,Monument,Early Medieval,Powys,-3.1187540085521155,52.6167617664938
Bwlch Aeddan Dyke                                                                                                                                     ,Monument,Medieval,Powys,-3.2281050547267256,52.68649438612722
Bishton Castle                                                                                                                                        ,Defence,Medieval,Newport,-2.8783559162082106,51.588138057279394
Wentloog Castle                                                                                                                                       ,Institutional,Medieval,Newport,-3.080963249955015,51.54515652869836
Mound and Bailey Castle 495m NW of Ditch Hill Bridge                                                                                                  ,Defence,Medieval,Powys,-3.062190882218444,52.243406611793375
Llangibby Castle (Castell Tregrug)                                                                                                                    ,Defence,Medieval,Monmouthshire,-2.9211447408549334,51.67182680841092
Newcastle Castle                                                                                                                                      ,Defence,Medieval,Monmouthshire,-2.8038519713407544,51.85127288079635
Coed-Cwnwr Moated Site                                                                                                                                ,Defence,Medieval,Monmouthshire,-2.851171423506893,51.6905175299572
Pen-Twyn Earthwork                                                                                                                                    ,Defence,Prehistoric,Monmouthshire,-2.987916189815496,51.901597070257985
"The Moat Mound and Bailey Castle, Tre Fedw                                                                                                            ",Defence,Medieval,Monmouthshire,-2.974332915531418,51.89048937052151
Druidstone Standing Stone                                                                                                                             ,"Religious, Ritual and Funerary",Prehistoric,Newport,-3.095312135368343,51.54455585005746
"Harold's Stones, Standing Stones","Religious, Ritual and Funerary",Prehistoric,Monmouthshire,-2.72659504361025,51.7427486065331
Portskewett Hill Roman Site                                                                                                                           ,Unassigned,Roman,Monmouthshire,-2.726349686403777,51.594581340879465
St Julian's Wood Camp                                                                                                                                 ,Defence,Prehistoric,Newport,-2.954089675328624,51.59691596539186
Maesmor Hall Castle Mound                                                                                                                             ,Defence,Medieval,Conwy,-3.47196941928734,52.989536268969744
Wat's Dyke: Section W of Ty-Gwyn                                                                                                                      ,Monument,Early Medieval,Wrexham,-2.9966486936458407,53.06871624081678
Wat's Dyke: Section extending from Black Brook Bridge to Pentre-Clawdd                                                                                ,Monument,Early Medieval,Wrexham,-3.0179008851730234,52.99841815047765
Offa's Dyke: Chirk Castle Section extending NE from Castle Mill                                                                                       ,Monument,Early Medieval,Wrexham,-3.0933263803598496,52.93407457299037
Llwyn Bryn-Dinas Camp                                                                                                                                 ,Defence,Prehistoric,Powys,-3.229369181897835,52.813538319342925
Maen Sertan Boundary Stones                                                                                                                           ,Monument,Medieval,Conwy,-3.732169907504497,53.0832854425482
Cefn y Gader Round Barrows                                                                                                                            ,"Religious, Ritual and Funerary",Prehistoric,Denbighshire,-3.1268650315998636,53.03488591954374
Craig Adwywynt Camp                                                                                                                                   ,Defence,Prehistoric,Denbighshire,-3.312920014207392,53.07940926915396
Pen-y-Gaer Camp                                                                                                                                       ,Defence,Prehistoric,Denbighshire,-3.3363556290689638,53.083175728394465
Plas-Meifod Round Barrow                                                                                                                              ,"Religious, Ritual and Funerary",Prehistoric,Denbighshire,-3.4573640120683025,53.201894161168035
New Foxhall House                                                                                                                                     ,Domestic,Post Medieval/Modern,Denbighshire,-3.453698944208906,53.19579000598657
Moel Fenlli Camp                                                                                                                                      ,Defence,Prehistoric,Denbighshire,-3.2524588455509664,53.13134680619598
Cross Ridge Dyke & Earthwork on Cefn Eglwysilan                                                                                                       ,Defence,Unknown,Rhondda Cynon Taff,-3.3011184127841533,51.60385005952148
Rhos-Gwawr cairn cemetery                                                                                                                             ,"Religious, Ritual and Funerary",Prehistoric,Rhondda Cynon Taff,-3.458149456548106,51.696967447280876
Remains of Blast Furnace at Melin Court                                                                                                               ,Industrial,Post Medieval/Modern,Neath Port Talbot,-3.7022552289403223,51.70271996438119
Maesteg blast furnaces                                                                                                                                ,Industrial,Post Medieval/Modern,Bridgend,-3.6642874382164785,51.611364950444326
"Ring Cairn 350m W of Penrhiw Caradoc, Llanwonno                                                                                                       ","Religious, Ritual and Funerary",Prehistoric,Rhondda Cynon Taff,-3.386321296247983,51.672318574714886
Llandarcy Round Cairn                                                                                                                                 ,"Religious, Ritual and Funerary",Prehistoric,Neath Port Talbot,-3.8535106989703225,51.642708730085154
Carn Cornel Round Cairn                                                                                                                               ,"Religious, Ritual and Funerary",Prehistoric,Neath Port Talbot,-3.715175943588508,51.742807391232326
Blaen-Cwmbach Earthwork                                                                                                                               ,Monument,Prehistoric,Neath Port Talbot,-3.746326440631516,51.67501558029576
Craig Ty-Isaf Camp,Defence,Prehistoric,Neath Port Talbot,-3.7979622274808995,51.625399341748455
Cefn Morfydd Dyke & Earthwork                                                                                                                         ,Monument,Early Medieval,Neath Port Talbot,-3.7548204055101873,51.66838760395006
Remains of Iron Furnace Near Angleton,Industrial,Post Medieval/Modern,Bridgend,-3.580854810833234,51.526194006490265
Carn y Hyrddod & Neighbouring Cairn                                                                                                                   ,"Religious, Ritual and Funerary",Prehistoric,Bridgend,-3.563529725532891,51.632631966908875
Bwlch yr Avan Dyke                                                                                                                                    ,Monument,Prehistoric,Bridgend,-3.561781690182688,51.644416793562385
Chapel Hill Camp                                                                                                                                      ,Defence,Prehistoric,Bridgend,-3.601904605534337,51.49054188966909
Cross in Tythegston Churchyard                                                                                                                        ,"Religious, Ritual and Funerary",Medieval,Bridgend,-3.647111939802457,51.496704677852456
Pre-Norman Stones in Churchyard,"Religious, Ritual and Funerary",Early Medieval,Bridgend,-3.6103908725902283,51.485695694010175
St Bride's Major Churchyard Cross                                                                                                                     ,"Religious, Ritual and Funerary",Medieval,Vale of Glamorgan,-3.5930312688449364,51.46326332848769
Llwynda-Ddu Camp                                                                                                                                      ,Defence,Prehistoric,Cardiff,-3.2862857481687016,51.52093758937467
Hutchwns round barrow,"Religious, Ritual and Funerary",Prehistoric,Bridgend,-3.709799727220445,51.484908490021795
Roman Camp                                                                                                                                            ,Monument,Prehistoric,Neath Port Talbot,-3.6853892119254823,51.579024581468026
Coity Burial Chamber,"Religious, Ritual and Funerary",Prehistoric,Bridgend,-3.5481732035236115,51.52615340695302
Y Gaer,Defence,Prehistoric,Vale of Glamorgan,-3.349675394836394,51.4638361479186
Gadlys                                                                                                                                                ,Domestic,Medieval,Rhondda Cynon Taff,-3.4730817760727692,51.519873010262486
Neath Abbey,"Religious, Ritual and Funerary",Medieval,Neath Port Talbot,-3.8261006406770326,51.66087111831224
Pant Ifan Round Barrow                                                                                                                                ,"Religious, Ritual and Funerary",Prehistoric,Flintshire,-3.351996064569826,53.255680430132266
Wat's Dyke: Section NW of Clawdd Offa                                                                                                                 ,Monument,Early Medieval,Flintshire,-3.0498023228758133,53.13828668120884
Prestatyn Roman Site,Civil,Prehistoric,Denbighshire,-3.409540456664897,53.32437675565058
Round Barrow 450m SSW of Llynfanod                                                                                                                    ,"Religious, Ritual and Funerary",Prehistoric,Flintshire,-3.29062400367028,53.244656555478755
Round Barrow 153m NW of Plas yn Rhos                                                                                                                  ,"Religious, Ritual and Funerary",Prehistoric,Flintshire,-3.3264662110123133,53.25902370595928
Maen Achwyfan Cross,"Religious, Ritual and Funerary",Early Medieval,Flintshire,-3.3085326619831132,53.29865846418111
Dolgarn Moated Site,Domestic,Medieval,Carmarthenshire,-4.517716145611753,51.8106785220729
Tair Carn Uchaf Cairns                                                                                                                                ,"Religious, Ritual and Funerary",Prehistoric,Carmarthenshire,-3.897612911428379,51.84018398678861
Carnau'r Gareg Las                                                                                                                                    ,"Religious, Ritual and Funerary",Prehistoric,Carmarthenshire,-3.7771020540687856,51.867892005984444
Y Garn Ring Cairn,"Religious, Ritual and Funerary",Prehistoric,Carmarthenshire,-4.095130090219363,51.95803706362079
Hillslope Enclosure at Laugharne Park Holiday Village                                                                                                 ,Monument,Prehistoric,Carmarthenshire,-4.4563342546244,51.77364057808607
Carmarthen Roman Town (part of),Civil,Roman,Carmarthenshire,-4.302518208592483,51.859587296278804
Kidwelly Medieval Town (Part of)                                                                                                                      ,Civil,Medieval,Carmarthenshire,-4.30668796465872,51.73946185653345
Llys-Brychan Roman Site,Domestic,Roman,Carmarthenshire,-3.8843056222536125,51.912541115057266
Carn Pen-Rhiw-Ddu                                                                                                                                     ,"Religious, Ritual and Funerary",Prehistoric,Carmarthenshire,-3.849077035053626,51.85415760850545
Capel Nebo Standing Stone                                                                                                                             ,"Religious, Ritual and Funerary",Prehistoric,Carmarthenshire,-4.706894254840616,51.89607320502617
Maes y Castell                                                                                                                                        ,Defence,Prehistoric,Carmarthenshire,-3.9920247597565623,51.93309392038591
Pen y Cnap Castle                                                                                                                                     ,Defence,Medieval,Carmarthenshire,-4.156362145257316,51.87126097866202
Beddau'r Derwyddon                                                                                                                                    ,Agriculture and Subsistence,Post Medieval/Modern,Carmarthenshire,-3.9263496973459975,51.845831327554166
Two Round Barrows near Crossroads N of Eglwsfair-a-Churig Church                                                                                      ,"Religious, Ritual and Funerary",Prehistoric,Carmarthenshire,-4.615433657000133,51.911101935027
Castell Du Castle Mound                                                                                                                               ,Defence,Medieval,Carmarthenshire,-4.276827943226606,51.98315905719028
Hendy Earthwork                                                                                                                                       ,Monument,Medieval,Carmarthenshire,-4.04918282738562,51.71070343806473
Portis-Parc Camp                                                                                                                                      ,Monument,Prehistoric,Carmarthenshire,-4.715291822671755,51.87503319964805
Castell Nonni,Defence,Medieval,Carmarthenshire,-4.195809751998772,52.036664649333986
Crug y Biswal Round Barrow                                                                                                                            ,"Religious, Ritual and Funerary",Prehistoric,Carmarthenshire,-4.162244774574111,52.02759211141546
Group of Standing Stones NE of Llechdwnni                                                                                                             ,"Religious, Ritual and Funerary",Prehistoric,Carmarthenshire,-4.273706391870677,51.76773057278379
Mynydd Llangyndeyrn Burial Chamber,"Religious, Ritual and Funerary",Prehistoric,Carmarthenshire,-4.197696726302476,51.797764351300174
Earthworks SE of Clyn-Derwen,Monument,Prehistoric,Carmarthenshire,-4.725528076531649,51.837447076716806
Cerrig Llwydion Burial Chamber                                                                                                                        ,"Religious, Ritual and Funerary",Prehistoric,Carmarthenshire,-4.3684712967304575,51.96788875127837
Carn Besi Burial Chamber                                                                                                                              ,"Religious, Ritual and Funerary",Prehistoric,Carmarthenshire,-4.682301201411554,51.91708724523123
Cairn Circle 585m NE of Meini Gwyr                                                                                                                    ,"Religious, Ritual and Funerary",Prehistoric,Carmarthenshire,-4.697267676671467,51.9108094574185
Cenarth Bridge                                                                                                                                        ,Transport,Post Medieval/Modern,Carmarthenshire,-4.525361810802963,52.04557069395355
Domen Llawddog (Or Tomen Maesllan) Mound & Bailey Castle                                                                                              ,Defence,Medieval,Carmarthenshire,-4.391214454465008,52.000458673904184
Castell-y-Gaer,Monument,Prehistoric,Carmarthenshire,-4.4055333240244074,51.849772985684666
Castell Dryslwyn,Defence,Medieval,Carmarthenshire,-4.100851588146377,51.86308458503104
Fort Popton (Curtain Walls and Gun Emplacements only),Defence,Post Medieval/Modern,Pembrokeshire,-5.049456078385441,51.69307539210696
"Cottage, Mill and Lime Kiln at Caerbwdy                                                                                                               ",Industrial,Post Medieval/Modern,Pembrokeshire,-5.24516236615352,51.8745149060054
Iron Age Hillslope Enclosure in Canaston Wood,Domestic,Prehistoric,Pembrokeshire,-4.772996781369768,51.79274540496382
Castle Malgwyn Bridge                                                                                                                                 ,Transport,Post Medieval/Modern,Pembrokeshire,-4.601077202966602,52.06151261702579
Cilgerran Castle Additional Area                                                                                                                      ,Defence,Medieval,Pembrokeshire,-4.634635941464499,52.05659393481745
Enclosure & Earthworks at Lewiston Hall,Domestic,Prehistoric,Pembrokeshire,-5.008949912573386,51.68807683454407
Medieval Building at Kingston Farm,Unassigned,Medieval,Pembrokeshire,-4.900655163474288,51.65821844754185
Deserted Medieval Site at New Inn                                                                                                                     ,Domestic,Medieval,Pembrokeshire,-4.827671146033766,51.93782933404469
"The Old Palace, Lydstep",Domestic,Medieval,Pembrokeshire,-4.767746026380429,51.6515084919624
The Old Castle,Defence,Medieval,Pembrokeshire,-4.830930639632978,52.02001329480454
Parc-Lan Standing Stones                                                                                                                              ,"Religious, Ritual and Funerary",Prehistoric,Pembrokeshire,-4.782666009100516,51.98713365225359
Carn Alw Hillfort                                                                                                                                     ,Defence,Prehistoric,Pembrokeshire,-4.711245282884337,51.97067952665919
Narberth Mountain Enclosure                                                                                                                           ,Monument,Prehistoric,Pembrokeshire,-4.7366342051009145,51.784074001122306
Fort Scoveston                                                                                                                                        ,Defence,Post Medieval/Modern,Pembrokeshire,-4.977743938479742,51.72055844919866
Mynnydd Caregog Hut Circle                                                                                                                            ,Domestic,Prehistoric,Pembrokeshire,-4.8537267938515205,51.992509682556
Mounds on the Island                                                                                                                                  ,Unassigned,Medieval,Pembrokeshire,-4.853147066945098,51.78983691254965
Picton Castle Mound                                                                                                                                   ,Defence,Medieval,Pembrokeshire,-4.877499515876475,51.78509684917173
West Popton Camp,Defence,Prehistoric,Pembrokeshire,-5.029458282360025,51.69376415956859
Black Point Rath,Defence,Prehistoric,Pembrokeshire,-5.105243772670703,51.7952164120005
Rhyd-Brown Camp                                                                                                                                       ,Defence,Prehistoric,Pembrokeshire,-4.809385793483335,51.86594238608565
Pillar Cross in Churchyard                                                                                                                            ,"Religious, Ritual and Funerary",Early Medieval,Pembrokeshire,-4.925432927699586,51.97310362828553
Bucket Camp                                                                                                                                           ,Monument,Prehistoric,Pembrokeshire,-4.984017355176559,51.94004653394878
Castell Mael                                                                                                                                          ,Defence,Medieval,Pembrokeshire,-4.896233241376422,51.93062111804081
Thornton Rath                                                                                                                                         ,Defence,Prehistoric,Pembrokeshire,-5.035098438330698,51.730440138429366
Kingston Burial Chamber                                                                                                                               ,"Religious, Ritual and Funerary",Prehistoric,Pembrokeshire,-4.906569485885635,51.65573368916885
Woodland Round Barrow                                                                                                                                 ,"Religious, Ritual and Funerary",Prehistoric,Pembrokeshire,-5.103816665116737,51.7630461696963
Llawhaden Hospital                                                                                                                                    ,Health and Welfare,Medieval,Pembrokeshire,-4.806319958380514,51.8206704703423
Waun Lwyd Standing Stones                                                                                                                             ,"Religious, Ritual and Funerary",Prehistoric,Pembrokeshire,-4.681995217021927,51.94926273477812
Waun Mawn Standing Stones                                                                                                                             ,"Religious, Ritual and Funerary",Prehistoric,Pembrokeshire,-4.792940212984174,51.97130487448858
Whitewell,Domestic,Medieval,Pembrokeshire,-4.755823401124205,51.65778783999363
Garn Turne Burial Chamber                                                                                                                             ,"Religious, Ritual and Funerary",Prehistoric,Pembrokeshire,-4.938749795643159,51.90713632092001
Narberth Castle,Defence,Medieval,Pembrokeshire,-4.742428933149534,51.79616993772931
Bulliber Hill Camp                                                                                                                                    ,Monument,Prehistoric,Pembrokeshire,-5.031624241210098,51.62917547330957
Tump Round Barrow,"Religious, Ritual and Funerary",Prehistoric,Pembrokeshire,-5.049172219764636,51.880742738061116
Llawhaden Bridge                                                                                                                                      ,Transport,Medieval,Pembrokeshire,-4.795028247690762,51.82065179753978
Llawhaden Castle,Defence,Medieval,Pembrokeshire,-4.797616414548,51.82237092053028
"Montgomery Medieval Town, Kerry Gate Extra Mural Settlement                                                                                           ",Civil,Medieval,Powys,-3.1491896822669156,52.55783582272238
Nant yr Eira Prehistoric Copper Mines & 19th Century Lead Mine                                                                                        ,Industrial,Post Medieval/Modern,Powys,-3.728759248588366,52.47195638403787
Bryn Bank Hillfort                                                                                                                                    ,Defence,Prehistoric,Powys,-3.312945019294961,52.52437821896566
Root Store at Bon-y-Maen 800m NW of Blaen y Cwm                                                                                                       ,Agriculture and Subsistence,Post Medieval/Modern,Powys,-3.5101181744304677,52.617407600477236
Plas Yr Alarch Moated Site                                                                                                                            ,Domestic,Medieval,Powys,-3.2125454831773737,52.62788556036903
Henfron Moated Site                                                                                                                                   ,Domestic,Medieval,Powys,-3.2005633776652,52.55769447904024
Hen Domen Pre-Conquest Fields                                                                                                                         ,Agriculture and Subsistence,Early Medieval,Powys,-3.1627084859037837,52.57427293204431
Barrow Group W of Staylittle                                                                                                                          ,"Religious, Ritual and Funerary",Prehistoric,Powys,-3.654625545364524,52.51345798707456
Rhos-Dyrnog Standing Stone                                                                                                                            ,"Religious, Ritual and Funerary",Prehistoric,Powys,-3.731894636894857,52.59031225400411
Upper Aldress Moated Site                                                                                                                             ,Defence,Medieval,Powys,-3.0556114168893687,52.55542595917853
Gardden Camp & Barrows                                                                                                                                ,Defence,Prehistoric,Powys,-3.4305388056665294,52.66659341708104
"Offa's Dyke: Section extending 3000m SE to Bele Brook, Llandrinio",Monument,Early Medieval,Powys,-3.0766906162658945,52.74739077419307
Castle Bank Hillfort,Defence,Prehistoric,Powys,-3.3372317010315395,52.195484876962006
Gaer Fawr,Defence,Prehistoric,Powys,-3.150132077623592,52.70930252848967
Pen y Foel Camp                                                                                                                                       ,Defence,Prehistoric,Powys,-3.2158353768784393,52.64476249551354
Forden Gaer Roman Site,Defence,Roman,Powys,-3.167569005565836,52.583925619132636
Cefn Carnedd Camp,Defence,Prehistoric,Powys,-3.4501097327575194,52.49913123230311
Llwyn-Ceubren Round Barrow                                                                                                                            ,Domestic,Prehistoric,Powys,-3.3773125210250146,52.22125050248377
Cwm-Maerdy Standing Stone                                                                                                                             ,"Religious, Ritual and Funerary",Prehistoric,Powys,-3.2573846715933232,52.220647461692124
Pillar Stone in Church                                                                                                                                ,"Religious, Ritual and Funerary",Early Medieval,Powys,-3.189599749489226,52.137663085367166
Castle Mound 400m N of Cefnige                                                                                                                        ,Defence,Medieval,Powys,-3.277897195066992,52.095739858907386
Knighton Mound & Bailey Castle                                                                                                                        ,Defence,Medieval,Powys,-3.052171934230569,52.344200337005184
Bryn y Castell                                                                                                                                        ,Defence,Medieval,Powys,-3.0433812767740025,52.34305559775333
Stanage Mound & Bailey Castle,Defence,Medieval,Powys,-2.9836349385062095,52.351551790573424
Gelli Hill Stone Circle                                                                                                                               ,"Religious, Ritual and Funerary",Prehistoric,Powys,-3.3252397260118283,52.21631743429295
Radnor Castle,Defence,Medieval,Powys,-3.1566015272103947,52.24172790876804
Careg-y-Bwci                                                                                                                                          ,"Religious, Ritual and Funerary",Prehistoric,Ceredigion,-3.9789865540509544,52.112892294636175
Fron Ddu Round Barrow                                                                                                                                 ,"Religious, Ritual and Funerary",Prehistoric,Ceredigion,-3.9077347252358425,52.37555079338524
Castell Caer Wedros                                                                                                                                   ,Defence,Medieval,Ceredigion,-4.376121048147451,52.17624292832215
Round Cairn 460m S of Ty'n-y-Rhos                                                                                                                     ,"Religious, Ritual and Funerary",Prehistoric,Ceredigion,-4.1018926127016755,52.20789529744436
Castell Rhyfel                                                                                                                                        ,Defence,Prehistoric,Ceredigion,-3.8576510171787866,52.22243374692035
Bedd Taliesin Round Barrow,"Religious, Ritual and Funerary",Prehistoric,Ceredigion,-3.9586263290291646,52.502575262884946
Castell Bach,Defence,Prehistoric,Ceredigion,-4.40022739763615,52.196634911389744
Capel Eithin (site of) and Cemetery,"Religious, Ritual and Funerary",Early Medieval,Isle of Anglesey,-4.26342010047477,53.22930316612327
Parc Salmon Hut Group                                                                                                                                 ,Domestic,Prehistoric,Isle of Anglesey,-4.2552260895925045,53.35092303816885
Bwlch-y-Dafarn Enclosed Hut Group                                                                                                                     ,Domestic,Prehistoric,Isle of Anglesey,-4.265512756297946,53.34627772661029
Caerhoslligwy Enclosed Hut Groups                                                                                                                     ,Domestic,Prehistoric,Isle of Anglesey,-4.269080754002129,53.34160668022609
Bryn-Celli-Ddu Standing Stone,"Religious, Ritual and Funerary",Prehistoric,Isle of Anglesey,-4.238144790348281,53.20692618614605
Pont Sarn-Las Hut Group                                                                                                                               ,Domestic,Prehistoric,Isle of Anglesey,-4.2890038026201145,53.185909862592816
Castellor Hut Group,Domestic,Prehistoric,Isle of Anglesey,-4.496008063326607,53.256566294551064
Mynwent y Llwyn,Unassigned,Early Medieval,Isle of Anglesey,-4.310008415770778,53.23246372953572
Penmon Deer Park Hut Groups & Terraces                                                                                                                ,Domestic,Prehistoric,Isle of Anglesey,-4.063115253894146,53.304683932741575
Bodorwedd Standing Stones,"Religious, Ritual and Funerary",Prehistoric,Isle of Anglesey,-4.461986780643051,53.39653642162409
Plas Meilw Hut Circles,Domestic,Prehistoric,Isle of Anglesey,-4.6574854771704475,53.29563961316888
Porth Dafarch Hut Circles,"Religious, Ritual and Funerary",Prehistoric,Isle of Anglesey,-4.650545500225287,53.28826829641459
T Mawr Standing Stone,"Religious, Ritual and Funerary",Prehistoric,Isle of Anglesey,-4.621383200237885,53.296717842603016
"Cairns, Settlements & Field Systems of Prehistoric & Medieval date at Pennant above Nant Esgeiriau                                                    ","Religious, Ritual and Funerary",Prehistoric,Denbighshire,-3.417260519983259,52.88837137734911
Platform Settlement by Clochnant E of Cadwst                                                                                                          ,Domestic,Prehistoric,Denbighshire,-3.4185573280807495,52.90577864609205
Cymmer Castle                                                                                                                                         ,Defence,Medieval,Gwynedd,-3.88080263030072,52.75851738178157
Settlement 500m SE of Moel Goedog                                                                                                                     ,Domestic,Prehistoric,Gwynedd,-4.056018844516445,52.86878735459318
Hengwm Stone Circles                                                                                                                                  ,"Religious, Ritual and Funerary",Prehistoric,Gwynedd,-4.05236719677135,52.77156803493102
Maen Llwyd Standing Stones                                                                                                                            ,"Religious, Ritual and Funerary",Prehistoric,Gwynedd,-3.9225849201833083,52.87862072699465
Round Hut and Cairns on NW Slope of Braich Ddu                                                                                                        ,"Religious, Ritual and Funerary",Prehistoric,Gwynedd,-4.0207284995759585,52.689546468198095
Caerleon Castle Mound                                                                                                                                 ,Defence,Medieval,Newport,-2.950792647184408,51.609791701412334
"Y Gaerwen Enclosure, Llangar                                                                                                                          ",Monument,Prehistoric,Denbighshire,-3.4497658441355235,52.95467626324257
Llangar Old Church,"Religious, Ritual and Funerary",Medieval,Denbighshire,-3.3959190131995047,52.97118833338179
Gwerclas Mound                                                                                                                                        ,Monument,Prehistoric,Denbighshire,-3.4101016242291773,52.96816208762243
Tan-y-Coed Burial Chamber                                                                                                                             ,"Religious, Ritual and Funerary",Prehistoric,Denbighshire,-3.4187829679303117,52.94543096731137
Pont Tai-Hirion Old Bridge                                                                                                                            ,Transport,Post Medieval/Modern,Gwynedd,-3.782060464733038,52.94236213344679
Pont Cilan                                                                                                                                            ,Transport,Post Medieval/Modern,Denbighshire,-3.45748335618724,52.92565186757353
Cors-y-Gedol Burial Chamber,"Religious, Ritual and Funerary",Prehistoric,Gwynedd,-4.072491660104331,52.78482152264323
Dinas Melin-y-Wig                                                                                                                                     ,Defence,Prehistoric,Denbighshire,-3.419348905960631,53.03130510035666
Caer Euni Camp,Defence,Iron Age,Gwynedd,-3.489326237109339,52.959670914606015
Rug Mound,"Religious, Ritual and Funerary",Prehistoric,Denbighshire,-3.407500000974665,52.983871393435734
Capel Anelog,"Religious, Ritual and Funerary",Medieval,Gwynedd,-4.737690870489091,52.81292691081445
Pen-y-Gaer,Defence,Prehistoric,Gwynedd,-4.491313419073358,52.85449562080156
Llys Dinorwig                                                                                                                                         ,Monument,Medieval,Gwynedd,-4.1508438142666195,53.14631028769788
Cwm Erch Copper Mine,Industrial,Post Medieval/Modern,Gwynedd,-4.040097036046588,53.05702335667574
Hafoty Ty-Newydd Enclosed Hut Group                                                                                                                   ,Domestic,Prehistoric,Gwynedd,-4.245811178052474,53.090026380992356
Mynydd Rhiw Stone Axe Factory                                                                                                                         ,Industrial,Prehistoric,Gwynedd,-4.623387224911407,52.83779243065202
Settlement between Cil-Twllan and Tan-y-Garth,Domestic,Medieval,Gwynedd,-4.040294201380445,53.17791625701292
Hut Group N of Gyrn Ddu                                                                                                                               ,Domestic,Prehistoric,Gwynedd,-4.381164427652472,52.9974723646443
Bwlch y Ddeufaen Standing Stones                                                                                                                      ,"Religious, Ritual and Funerary",Prehistoric,Conwy,-3.9271531260581227,53.22774634498828
Barclodiad-y-Gawres Round Cairn                                                                                                                       ,"Religious, Ritual and Funerary",Prehistoric,Conwy,-3.9228787358815516,53.22597240910093
Ty-Newydd Mound & Bailey Castle,Defence,Medieval,Gwynedd,-4.460441525517206,52.91659727858653
Tirgwyn Standing Stones,"Religious, Ritual and Funerary",Prehistoric,Gwynedd,-4.464650260302381,52.923910037750304
Graianog Standing Stone & Round Cairns                                                                                                                ,"Religious, Ritual and Funerary",Prehistoric,Gwynedd,-4.304574526590183,53.017261341736926
Cross-Incised Stone in Llangybi Churchyard                                                                                                            ,"Religious, Ritual and Funerary",Early Medieval,Gwynedd,-4.340203791860527,52.94470710009927
Sundial in Clynnog Fawr Churchyard,"Gardens, Parks and Urban Spaces",Early Medieval,Gwynedd,-4.365613920117452,53.020782587936395
Dolbenmaen Castle Mound,Defence,Medieval,Gwynedd,-4.225101018462261,52.9641280634281
Dinas y Prif Camp                                                                                                                                     ,Monument,Roman,Gwynedd,-4.2961608928249255,53.094882322225864
Nant Castell Camp,Defence,Prehistoric,Gwynedd,-4.494123067789695,52.854274746842194
Pen y Gaer Camp                                                                                                                                       ,Defence,Prehistoric,Gwynedd,-4.10725124182239,52.99039029358286
Pen y Gaer Camp,Defence,Prehistoric,Gwynedd,-4.3419587694773885,52.9837845637513
"Sirhowy Ironworks, Site of",Industrial,Post Medieval/Modern,Blaenau Gwent,-3.243640047474959,51.782984539529735
Moated Site South of Moynes Court                                                                                                                     ,Domestic,Medieval,Monmouthshire,-2.6948494896574324,51.61442741602993
Moated Site 200m South West of Court Farm,Domestic,Medieval,Newport,-2.8817853930956367,51.60050270600105
Round Barrow 250m North East of Five Lanes                                                                                                            ,"Religious, Ritual and Funerary",Prehistoric,Monmouthshire,-2.7946465703485677,51.6143426126064
Dinham Castle                                                                                                                                         ,Defence,Medieval,Monmouthshire,-2.7521559485397473,51.62741745549169
"Tintern Abbey, Precinct Wall                                                                                                                          ",Monument,Medieval,Monmouthshire,-2.6784200297342418,51.69613819435857
St Peter's Cave,Monument,Prehistoric,Monmouthshire,-2.667684638282606,51.63126417851539
Whitewall Brake Roman Site                                                                                                                            ,Domestic,Roman,Monmouthshire,-2.7591571965306736,51.6167085154592
Bedwas Churchyard Cross,"Religious, Ritual and Funerary",Medieval,Caerphilly,-3.198056776426711,51.59543414904105
Churchyard Cross                                                                                                                                      ,"Religious, Ritual and Funerary",Medieval,Torfaen,-3.002753987938709,51.63278234010007
Llantarnam Abbey Tithe Barn                                                                                                                           ,Agriculture and Subsistence,Medieval,Torfaen,-2.995448997172301,51.63173855160564
Goytre Wood Castle Mound                                                                                                                              ,Defence,Medieval,Monmouthshire,-2.9414803478841516,51.904504323849515
Llangattock Nigh Usk Churchyard Cross                                                                                                                 ,"Religious, Ritual and Funerary",Medieval,Monmouthshire,-2.972188250118636,51.78162306596218
Trellech Cross Cross-Base                                                                                                                             ,"Religious, Ritual and Funerary",Medieval,Monmouthshire,-2.726279140809537,51.73298604616563
Llangibby Castle Mound                                                                                                                                ,Defence,Medieval,Monmouthshire,-2.9130668124558365,51.67139536862808
Mitchel Troy Churchyard Cross                                                                                                                         ,"Religious, Ritual and Funerary",Medieval,Monmouthshire,-2.7374853936732166,51.78978579044678
Skenfrith Castle,Defence,Medieval,Monmouthshire,-2.79052559531539,51.87868718209655
Goldcliff Moated House Site                                                                                                                           ,Domestic,Medieval,Newport,-2.921978010263085,51.547556911416315
Runston Medieval Village Site & Runston Chapel,"Religious, Ritual and Funerary",Medieval,Monmouthshire,-2.7294777398629058,51.620412395569
"Begwns Round Barrow, Mynydd Machen                                                                                                                    ","Religious, Ritual and Funerary",Bronze Age,Caerphilly,-3.122217369085309,51.603557103043585
Crick Medieval House                                                                                                                                  ,Domestic,Medieval,Monmouthshire,-2.7376110375259795,51.608897455328275
Langstone Fish Pond,Water Supply and Drainage,Medieval,Newport,-2.904956833710083,51.60330251623659
Langstone motte and enclosure                                                                                                                         ,Defence,Medieval,Newport,-2.908237513543479,51.60128104535903
Moated Site North West of Bertholey House                                                                                                             ,Domestic,Medieval,Monmouthshire,-2.883960760130503,51.64930127810991
Caer Licyn                                                                                                                                            ,Defence,Medieval,Newport,-2.882983817796937,51.63101094359572
Pen-Toppen-Ash Camp,Defence,Roman,Newport,-2.898946002778465,51.619173831235884
Gaer-Llwyd Burial Chamber,"Religious, Ritual and Funerary",Neolithic,Monmouthshire,-2.8000015821649025,51.66669939884193
Heston Brake Long Barrow                                                                                                                              ,"Religious, Ritual and Funerary",Prehistoric,Monmouthshire,-2.715449908075478,51.59455838953531
Pierce Wood Camps                                                                                                                                     ,Defence,Prehistoric,Monmouthshire,-2.673124396949468,51.660050485902076
Denbigh Medieval Town (North - Eastern Corner)                                                                                                        ,Civil,Medieval,Denbighshire,-3.419068590162755,53.181563471899516
"Wat's Dyke: Section SSW of Wrexham Station, 130m Long                                                                                                 ",Monument,Early Medieval,Wrexham,-3.002668356848413,53.049014704474715
Rhewl Round Barrows                                                                                                                                   ,"Religious, Ritual and Funerary",Prehistoric,Denbighshire,-3.325054945577772,53.13278126587766
Cae Ddunod Camp                                                                                                                                       ,Defence,Prehistoric,Conwy,-3.51575494900773,53.05586255013304
Tyn-y-Mynydd Round Barrow                                                                                                                             ,"Religious, Ritual and Funerary",Prehistoric,Denbighshire,-3.2434100158943977,53.09334381664087
Coed Plas Round Barrow                                                                                                                                ,"Religious, Ritual and Funerary",Prehistoric,Denbighshire,-3.449878035498948,53.20676801494913
Maen Huail Historic Stone                                                                                                                             ,Commemorative,Unknown,Denbighshire,-3.31077326025968,53.114384783422715
Cwmdu Air Shaft & Fan,Industrial,Post Medieval/Modern,Merthyr Tydfil,-3.4038559342006773,51.737048825053954
Cyfarthfa Canal Level                                                                                                                                 ,Industrial,Post Medieval/Modern,Merthyr Tydfil,-3.3877701204852837,51.739074243295086
Tower NE of Oxwich Castle                                                                                                                             ,Monument,Medieval,Swansea,-4.167187329350376,51.55619422814086
Relict Seawall on Rumney Great Wharf,Maritime,Post Medieval/Modern,Cardiff,-3.1008839778057173,51.495777093761426
Gwernllwynchwyth Engine House,Industrial,Post Medieval/Modern,Swansea,-3.884857370461382,51.6653018969811
Merthyr Mawr Warren,Unassigned,Prehistoric,Bridgend,-3.6392578150979435,51.481374965528346
Ogof y Pebyll Cave,Domestic,Prehistoric,Bridgend,-3.5131347116862335,51.51589208798097
"Ventilation Furnace, Trehafod                                                                                                                         ",Industrial,Post Medieval/Modern,Rhondda Cynon Taff,-3.383637282201438,51.6117541879846
Medieval Chapel of Talygarn,"Religious, Ritual and Funerary",Medieval,Rhondda Cynon Taff,-3.4039508183273792,51.51177390906052
Camp 280m S of Melin Court Brook                                                                                                                      ,Monument,Prehistoric,Neath Port Talbot,-3.6813658499683775,51.6869340876953
Pont Fawr Aqueduct / Viaduct                                                                                                                       ,Water Supply and Drainage,Post Medieval/Modern,Neath Port Talbot,-3.7414470126632837,51.63302263554056
Neath Abbey Ironworks Dam,Water Supply and Drainage,Post Medieval/Modern,Neath Port Talbot,-3.824886778705631,51.673479149766216
Tramroad at Ystradgynlais,Transport,Post Medieval/Modern,Powys,-3.7221278360131405,51.77514886984244
Site of Tegernacus Stone,"Religious, Ritual and Funerary",Early Medieval,Caerphilly,-3.2498552129561764,51.71567959808705
Three Platform Houses on Cefn Brithdir                                                                                                                ,Domestic,Medieval,Caerphilly,-3.26237579679766,51.719295222498815
Graig-y-Gilfach round cairn and earthwork                                                                                                             ,Monument,Prehistoric,Rhondda Cynon Taff,-3.405826832531475,51.72075920267719
Tir Lan round barrow cemetery                                                                                                                         ,"Religious, Ritual and Funerary",Prehistoric,Merthyr Tydfil,-3.308591948569826,51.68443221033498
Merthyr Common Round Cairns                                                                                                                           ,"Religious, Ritual and Funerary",Prehistoric,Merthyr Tydfil,-3.3356456921337907,51.72679330378188
Merthyr Mawr Churchyard Cross,"Religious, Ritual and Funerary",Medieval,Bridgend,-3.610262403388697,51.48531978284347
Mynydd Caerau Round Cairns                                                                                                                            ,"Religious, Ritual and Funerary",Prehistoric,Bridgend,-3.604702402033037,51.63690504889267
Remains of Llangewydd Church & Churchyard,"Religious, Ritual and Funerary",Medieval,Bridgend,-3.6220420334368724,51.51609979865884
Maen Cattwg (cup-marked stone)                                                                                                                        ,"Religious, Ritual and Funerary",Prehistoric,Caerphilly,-3.263689646522327,51.66879287328555
Barry Castle                                                                                                                                          ,Domestic,Medieval,Vale of Glamorgan,-3.2938924488708916,51.396637897027624
Pen-y-Castell                                                                                                                                         ,Defence,Prehistoric,Neath Port Talbot,-3.7508753449901193,51.611444885732546
Cae Summerhouse Camp,Domestic,Prehistoric,Bridgend,-3.6375448955505814,51.48943802816608
Five Round Barrows on Garth Hill,"Religious, Ritual and Funerary",Prehistoric,Cardiff,-3.2933428377772347,51.54362754189246
Round Barrows W of Cant-Erw,"Religious, Ritual and Funerary",Prehistoric,Vale of Glamorgan,-3.531053641715043,51.43088983043076
"Doghill Moated Site, Dyffryn                                                                                                                          ",Domestic,Medieval,Vale of Glamorgan,-3.306824217335553,51.439305792266275
Caer Gwanaf                                                                                                                                           ,Monument,Prehistoric,Rhondda Cynon Taff,-3.37368272494964,51.511116283193246
Llantrisant Castle,Defence,Medieval,Rhondda Cynon Taff,-3.3748007732595733,51.54154112018847
Morlais Castle                                                                                                                                        ,Defence,Medieval,Merthyr Tydfil,-3.3789849017894156,51.77683481070988
"Industrial Tramway, Near Buckley                                                                                                                      ",Transport,Post Medieval/Modern,Flintshire,-3.0637200171721055,53.17035404542764
"Peat Processing Works, Fenn's Moss                                                                                                                    ",Industrial,Post Medieval/Modern,Wrexham,-2.77779923238921,52.92475621716395
Criafol Round Barrow                                                                                                                                  ,"Religious, Ritual and Funerary",Prehistoric,Denbighshire,-3.3614144663894856,53.27422639659547
Dyserth Castle                                                                                                                                        ,Defence,Medieval,Denbighshire,-3.41168320787518,53.30787372741161
Crown Wood Round Barrow                                                                                                                               ,"Religious, Ritual and Funerary",Prehistoric,Flintshire,-3.313479790581892,53.274548435427164
Wat's Dyke: Section N & E of New Brighton                                                                                                             ,Monument,Early Medieval,Flintshire,-3.120541871391724,53.18426087779362
Bryn y Cwm Mound & Bailey Castle                                                                                                                      ,Defence,Medieval,Flintshire,-3.142870798873954,53.2343710918066
Caer Estyn Hillfort,Defence,Prehistoric,Flintshire,-3.0262882236983715,53.11008528503217
The Gop Caves                                                                                                                                         ,Monument,Prehistoric,Flintshire,-3.372584775563054,53.30971452795217
